[{"name":"Restoran 1","restaurantType":"SERBIAN","items":[],"location":{"longitude":"245","latitude":"34567","address":{"streetAndNumber":"neka ulica 2","town":"Novi Sad","zipCode":"21000"}},"logo":"components/images/chineseHouse.jpeg","deleted":false},{"name":"Restoran 2","restaurantType":"SERBIAN","items":[],"location":{"longitude":"434","latitude":"566767","address":{"streetAndNumber":"Ulica 2","town":"sasas","zipCode":"sasas"}},"logo":"components/images/serbiaSweet.jpeg","deleted":false},{"name":"Restoran 3","restaurantType":"ITALIAN","items":[],"location":{"longitude":"434","latitude":"65767","address":{"streetAndNumber":"asdsf45","town":"wrwefref","zipCode":"3456"}},"logo":"components/images/pizza.jpeg","deleted":false},{"name":"Restoran 4","restaurantType":"CHINESE","items":[],"location":{"longitude":"46567","latitude":"3434","address":{"streetAndNumber":"sadsf 45","town":"wergrh","zipCode":"24356"}},"logo":"components/images/sushi.jpeg","deleted":false},{"name":"Restoran 5","restaurantType":"AMERICAN","items":[],"location":{"longitude":"23456","latitude":"09876543","address":{"streetAndNumber":"dsfrg 4","town":"sdfgshj","zipCode":"213456"}},"logo":"components/images/burger.jpeg","deleted":false},{"name":"Restoran 6","restaurantType":"SERBIAN","items":[],"location":{"longitude":"sasas","latitude":"sasas","address":{"streetAndNumber":"asasas","town":"sasas","zipCode":"asasas"}},"logo":"components/images/serbia.jpeg","deleted":false},{"name":"Restoran 7","restaurantType":"ITALIAN","items":[],"location":{"longitude":"sasas","latitude":"sasas","address":{"streetAndNumber":"asasas","town":"sasas","zipCode":"asasas"}},"logo":"components/images/italia.jpeg","deleted":false},{"name":"NekiRestoran","restaurantType":"CHINESE","items":[],"status":"OPEN","location":{"longitude":"323","latitude":"12313","address":{"streetAndNumber":"wefew","town":"ewfewf","zipCode":"3123"}},"logo":"components/images/sushi.jpeg","deleted":false},{"name":"fvdd","restaurantType":"CHINESE","items":[],"status":"OPEN","location":{"longitude":"aaaaaaaaaaa","latitude":"aaaaaaaaaaaaaaaaaaa","address":{"streetAndNumber":"aaaaaaaaaaaaaaaaa","town":"aaaaaaaaaaaaaaa","zipCode":"aaaaaaaaaaaaaa"}},"logo":"components/images/pocetna.jpeg","deleted":false},{"name":"ascsad","restaurantType":"CHINESE","items":[],"status":"OPEN","location":{"longitude":"dasdsa","latitude":"sad","address":{"streetAndNumber":"dsad","town":"asd","zipCode":"adsas"}},"logo":"components/images/pizza.jpeg","deleted":false},{"name":"sada","restaurantType":"ITALIAN","items":[],"status":"OPEN","location":{"longitude":"asdad","latitude":"dsad","address":{"streetAndNumber":"ads","town":"dsad","zipCode":"dsad"}},"logo":"components/images/pizza.jpeg","deleted":false},{"name":"scasc","restaurantType":"CHINESE","items":[],"status":"OPEN","location":{"longitude":"scacsac","latitude":"ascsac","address":{"streetAndNumber":"csasc","town":"scasc","zipCode":"csaasc"}},"logo":"components/images/pizza.jpeg","deleted":false},{"name":"PizzaBar","restaurantType":"ITALIAN","items":[],"status":"OPEN","location":{"longitude":"2131","latitude":"2312312","address":{"streetAndNumber":"Italijanska678","town":"Rim","zipCode":"2`12`12"}},"logo":"components/images/pizza.jpeg","deleted":false},{"name":"Novidw","restaurantType":"CHINESE","items":[],"status":"OPEN","location":{"longitude":"wdqdw","latitude":"qdd","address":{"streetAndNumber":"qwdq","town":"dqd","zipCode":"qdqw"}},"logo":"components/images/pizza.jpeg","deleted":false},{"name":"RESTORANTEST","restaurantType":"ITALIAN","items":[],"status":"OPEN","location":{"longitude":"1","latitude":"1","address":{"streetAndNumber":"1","town":"1","zipCode":"1"}},"logo":"components/images/pizza.jpeg","deleted":false},{"name":"RESTORANTEST22222222222222222","restaurantType":"ITALIAN","items":[],"status":"OPEN","location":{"longitude":"1","latitude":"1","address":{"streetAndNumber":"1","town":"1","zipCode":"1"}},"logo":"components/images/pizza.jpeg","deleted":false},{"name":"aawdaw","restaurantType":"SERBIAN","items":[],"status":"OPEN","location":{"longitude":"cdsds","latitude":"sads","address":{"streetAndNumber":"asdad","town":"adsads","zipCode":"asddsd"}},"logo":"components/images/pizza.jpeg","deleted":false},{"name":"PROBAREST","restaurantType":"CHINESE","items":[],"status":"OPEN","location":{"longitude":"A","latitude":"A","address":{"streetAndNumber":"A","town":"A","zipCode":"A"}},"logo":"components/images/pizza.jpeg","deleted":false}]